{
"type": "FeatureCollection",
"name": "schools_sf",
"crs": { "type": "name", "properties": { "name": "urn:ogc:def:crs:OGC:1.3:CRS84" } },
"features": [
{ "type": "Feature", "properties": { "id": "510000302015", "NAME": "Charlottesville-Albemarle Tech", "STREET": "1000 East Rio Rd", "CITY": "Charlottesville", "STATE": "VA", "ZIP": "22901", "STFIP": "51", "CNTY": "51003", "NMCNTY": "Albemarle County", "LOCALE": "23", "LAT": 38.062477, "LON": -78.463778, "type": "public", "county": "003" }, "geometry": { "type": "Point", "coordinates": [ -78.463778, 38.062476999083934 ] } },
{ "type": "Feature", "properties": { "id": "510000802020", "NAME": "Valley Career and Technical Center", "STREET": "49 Hornet Road", "CITY": "Fishersville", "STATE": "VA", "ZIP": "22939", "STFIP": "51", "CNTY": "51015", "NMCNTY": "Augusta County", "LOCALE": "41", "LAT": 38.115842, "LON": -78.98867, "type": "public", "county": "015" }, "geometry": { "type": "Point", "coordinates": [ -78.98867, 38.1158419990835 ] } },
{ "type": "Feature", "properties": { "id": "510001802090", "NAME": "Piedmont Reg Ed\/Ivy Creek", "STREET": "227 Lambs Lane", "CITY": "Charlottesville", "STATE": "VA", "ZIP": "22901", "STFIP": "51", "CNTY": "51003", "NMCNTY": "Albemarle County", "LOCALE": "41", "LAT": 38.074917, "LON": -78.507056, "type": "public", "county": "003" }, "geometry": { "type": "Point", "coordinates": [ -78.507056, 38.074916999083811 ] } },
{ "type": "Feature", "properties": { "id": "510001902091", "NAME": "Shenandoah Valley Reg", "STREET": "18 Government Center Lane", "CITY": "Verona", "STATE": "VA", "ZIP": "24482", "STFIP": "51", "CNTY": "51015", "NMCNTY": "Augusta County", "LOCALE": "23", "LAT": 38.193208, "LON": -79.01468, "type": "public", "county": "015" }, "geometry": { "type": "Point", "coordinates": [ -79.01468, 38.193207999082908 ] } },
{ "type": "Feature", "properties": { "id": "510002801504", "NAME": "Shenandoah Valley Governor's School", "STREET": "49 Hornet Road", "CITY": "Fishersville", "STATE": "VA", "ZIP": "22939", "STFIP": "51", "CNTY": "51015", "NMCNTY": "Augusta County", "LOCALE": "41", "LAT": 38.115773, "LON": -78.988581, "type": "public", "county": "015" }, "geometry": { "type": "Point", "coordinates": [ -78.988581, 38.115772999083504 ] } },
{ "type": "Feature", "properties": { "id": "510004102324", "NAME": "Charlottesville Hosp. Ep.", "STREET": "Kluge Children's Rehab Center", "CITY": "Charlottesville", "STATE": "VA", "ZIP": "22903", "STFIP": "51", "CNTY": "51003", "NMCNTY": "Albemarle County", "LOCALE": "23", "LAT": 38.04535, "LON": -78.52067, "type": "public", "county": "003" }, "geometry": { "type": "Point", "coordinates": [ -78.52067, 38.04534999908406 ] } },
{ "type": "Feature", "properties": { "id": "510004202378", "NAME": "Blue Ridge Juvenile Detention Home", "STREET": "195 Peregory Ln.", "CITY": "Charlottesville", "STATE": "VA", "ZIP": "22902", "STFIP": "51", "CNTY": "51003", "NMCNTY": "Albemarle County", "LOCALE": "23", "LAT": 38.005309, "LON": -78.496602, "type": "public", "county": "003" }, "geometry": { "type": "Point", "coordinates": [ -78.496602, 38.00530899908437 ] } },
{ "type": "Feature", "properties": { "id": "510004202398", "NAME": "Shenandoah Valley Juvenile Detention Home", "STREET": "110 Montgomery Ave.", "CITY": "Staunton", "STATE": "VA", "ZIP": "24401", "STFIP": "51", "CNTY": "51790", "NMCNTY": "Staunton city", "LOCALE": "13", "LAT": 38.149562, "LON": -79.084985, "type": "public", "county": "790" }, "geometry": { "type": "Point", "coordinates": [ -79.084985, 38.149561999083232 ] } },
{ "type": "Feature", "properties": { "id": "510004802325", "NAME": "Western St. Hosp. Ed. Pr.", "STREET": "1301 Richmond Avenue", "CITY": "Staunton", "STATE": "VA", "ZIP": "24401", "STFIP": "51", "CNTY": "51790", "NMCNTY": "Staunton city", "LOCALE": "41", "LAT": 38.142478, "LON": -79.027492, "type": "public", "county": "790" }, "geometry": { "type": "Point", "coordinates": [ -79.027492, 38.14247799908329 ] } },
{ "type": "Feature", "properties": { "id": "510005402326", "NAME": "Woodrow Wilson Rehab Ctr", "STREET": "Woodrow Wilson Rehabilitation", "CITY": "Fishersville", "STATE": "VA", "ZIP": "22939", "STFIP": "51", "CNTY": "51015", "NMCNTY": "Augusta County", "LOCALE": "23", "LAT": 38.11794, "LON": -78.99142, "type": "public", "county": "015" }, "geometry": { "type": "Point", "coordinates": [ -78.99142, 38.117939999083497 ] } },
{ "type": "Feature", "properties": { "id": "510005802558", "NAME": "Virginia School For Deaf", "STREET": "100 New Hope Road", "CITY": "Staunton", "STATE": "VA", "ZIP": "24401", "STFIP": "51", "CNTY": "51790", "NMCNTY": "Staunton city", "LOCALE": "13", "LAT": 38.150422, "LON": -79.063903, "type": "public", "county": "790" }, "geometry": { "type": "Point", "coordinates": [ -79.063903, 38.150421999083228 ] } },
{ "type": "Feature", "properties": { "id": "510005802559", "NAME": "Virginia School For Blind", "STREET": "100 New Hope Road", "CITY": "Staunton", "STATE": "VA", "ZIP": "24401", "STFIP": "51", "CNTY": "51790", "NMCNTY": "Staunton city", "LOCALE": "13", "LAT": 38.150489, "LON": -79.06394, "type": "public", "county": "790" }, "geometry": { "type": "Point", "coordinates": [ -79.06394, 38.150488999083237 ] } },
{ "type": "Feature", "properties": { "id": "510005803050", "NAME": "Virginia School for the Deaf and Blind High", "STREET": "East Beverly Street", "CITY": "Staunton", "STATE": "VA", "ZIP": "24402", "STFIP": "51", "CNTY": "51790", "NMCNTY": "Staunton city", "LOCALE": "13", "LAT": 38.15066, "LON": -79.063974, "type": "public", "county": "790" }, "geometry": { "type": "Point", "coordinates": [ -79.063974, 38.150659999083238 ] } },
{ "type": "Feature", "properties": { "id": "510005803051", "NAME": "Virginia School for the Deaf and Blind Middle", "STREET": "East Beverly Street", "CITY": "Staunton", "STATE": "VA", "ZIP": "24402", "STFIP": "51", "CNTY": "51790", "NMCNTY": "Staunton city", "LOCALE": "13", "LAT": 38.15066, "LON": -79.063974, "type": "public", "county": "790" }, "geometry": { "type": "Point", "coordinates": [ -79.063974, 38.150659999083238 ] } },
{ "type": "Feature", "properties": { "id": "510005803052", "NAME": "Virginia School for the Deaf and Blind Elementary", "STREET": "East Beverly Street", "CITY": "Staunton", "STATE": "VA", "ZIP": "24402", "STFIP": "51", "CNTY": "51790", "NMCNTY": "Staunton city", "LOCALE": "13", "LAT": 38.15066, "LON": -79.063974, "type": "public", "county": "790" }, "geometry": { "type": "Point", "coordinates": [ -79.063974, 38.150659999083238 ] } },
{ "type": "Feature", "properties": { "id": "510006202562", "NAME": "Blue Ridge Governor's School", "STREET": "Fluvanna Co Public Schools", "CITY": "Palmyra", "STATE": "VA", "ZIP": "22963", "STFIP": "51", "CNTY": "51065", "NMCNTY": "Fluvanna County", "LOCALE": "42", "LAT": 37.87394, "LON": -78.261503, "type": "public", "county": "065" }, "geometry": { "type": "Point", "coordinates": [ -78.261503, 37.873939999085415 ] } },
{ "type": "Feature", "properties": { "id": "510007101949", "NAME": "Commonwealth Ctr For Children & Adolescents", "STREET": "1355 Richmond Road", "CITY": "Staunton", "STATE": "VA", "ZIP": "24402", "STFIP": "51", "CNTY": "51790", "NMCNTY": "Staunton city", "LOCALE": "41", "LAT": 38.13182, "LON": -79.03534, "type": "public", "county": "790" }, "geometry": { "type": "Point", "coordinates": [ -79.03534, 38.131819999083376 ] } },
{ "type": "Feature", "properties": { "id": "510007702352", "NAME": "Project Return\/Fluvanna Co", "STREET": "C\/O Fluvanna Co Public Schls", "CITY": "Palmyra", "STATE": "VA", "ZIP": "22963", "STFIP": "51", "CNTY": "51065", "NMCNTY": "Fluvanna County", "LOCALE": "42", "LAT": 37.874071, "LON": -78.261737, "type": "public", "county": "065" }, "geometry": { "type": "Point", "coordinates": [ -78.261737, 37.874070999085426 ] } },
{ "type": "Feature", "properties": { "id": "510009000002", "NAME": "Agnor-Hurt Elementary", "STREET": "3201 Berkmar Drive", "CITY": "Charlottesville", "STATE": "VA", "ZIP": "22901", "STFIP": "51", "CNTY": "51003", "NMCNTY": "Albemarle County", "LOCALE": "23", "LAT": 38.089855, "LON": -78.47714, "type": "public", "county": "003" }, "geometry": { "type": "Point", "coordinates": [ -78.47714, 38.089854999083705 ] } },
{ "type": "Feature", "properties": { "id": "510009000003", "NAME": "Virginia L. Murray Elementary", "STREET": "3251 Morgantown Road", "CITY": "Charlottesville", "STATE": "VA", "ZIP": "22903", "STFIP": "51", "CNTY": "51003", "NMCNTY": "Albemarle County", "LOCALE": "41", "LAT": 38.058067, "LON": -78.613115, "type": "public", "county": "003" }, "geometry": { "type": "Point", "coordinates": [ -78.613115, 38.058066999083955 ] } },
{ "type": "Feature", "properties": { "id": "510009000015", "NAME": "Albemarle High", "STREET": "2775 Hydraulic Road", "CITY": "Charlottesville", "STATE": "VA", "ZIP": "22901", "STFIP": "51", "CNTY": "51003", "NMCNTY": "Albemarle County", "LOCALE": "41", "LAT": 38.076167, "LON": -78.501162, "type": "public", "county": "003" }, "geometry": { "type": "Point", "coordinates": [ -78.501162, 38.07616699908381 ] } },
{ "type": "Feature", "properties": { "id": "510009000016", "NAME": "Benjamin F. Yancey Elementary", "STREET": "7625 Porters Road", "CITY": "Esmont", "STATE": "VA", "ZIP": "22937", "STFIP": "51", "CNTY": "51003", "NMCNTY": "Albemarle County", "LOCALE": "42", "LAT": 37.821223, "LON": -78.595856, "type": "public", "county": "003" }, "geometry": { "type": "Point", "coordinates": [ -78.595856, 37.821222999085848 ] } },
{ "type": "Feature", "properties": { "id": "510009000017", "NAME": "Broadus Wood Elementary", "STREET": "185 Buck Mountain Road", "CITY": "Earlysville", "STATE": "VA", "ZIP": "22936", "STFIP": "51", "CNTY": "51003", "NMCNTY": "Albemarle County", "LOCALE": "41", "LAT": 38.162156, "LON": -78.489809, "type": "public", "county": "003" }, "geometry": { "type": "Point", "coordinates": [ -78.489809, 38.162155999083147 ] } },
{ "type": "Feature", "properties": { "id": "510009000018", "NAME": "Brownsville Elementary", "STREET": "5870 Rockfish Gap Turnpike", "CITY": "Crozet", "STATE": "VA", "ZIP": "22932", "STFIP": "51", "CNTY": "51003", "NMCNTY": "Albemarle County", "LOCALE": "41", "LAT": 38.052126, "LON": -78.703138, "type": "public", "county": "003" }, "geometry": { "type": "Point", "coordinates": [ -78.703138, 38.052125999084005 ] } },
{ "type": "Feature", "properties": { "id": "510009000020", "NAME": "Crozet Elementary", "STREET": "1407 Crozet Avenue", "CITY": "Crozet", "STATE": "VA", "ZIP": "22932", "STFIP": "51", "CNTY": "51003", "NMCNTY": "Albemarle County", "LOCALE": "31", "LAT": 38.074636, "LON": -78.697725, "type": "public", "county": "003" }, "geometry": { "type": "Point", "coordinates": [ -78.697725, 38.074635999083824 ] } },
{ "type": "Feature", "properties": { "id": "510009000022", "NAME": "Hollymead Elementary", "STREET": "2775 Powell Creek Drive", "CITY": "Charlottesville", "STATE": "VA", "ZIP": "22911", "STFIP": "51", "CNTY": "51003", "NMCNTY": "Albemarle County", "LOCALE": "23", "LAT": 38.112445, "LON": -78.439264, "type": "public", "county": "003" }, "geometry": { "type": "Point", "coordinates": [ -78.439264, 38.112444999083536 ] } },
{ "type": "Feature", "properties": { "id": "510009000023", "NAME": "Jack Jouett Middle", "STREET": "210 Lambs Lane", "CITY": "Charlottesville", "STATE": "VA", "ZIP": "22901", "STFIP": "51", "CNTY": "51003", "NMCNTY": "Albemarle County", "LOCALE": "41", "LAT": 38.077283, "LON": -78.506644, "type": "public", "county": "003" }, "geometry": { "type": "Point", "coordinates": [ -78.506644, 38.077282999083799 ] } },
{ "type": "Feature", "properties": { "id": "510009000024", "NAME": "Jackson P. Burley Middle", "STREET": "901 Rose Hill Drive", "CITY": "Charlottesville", "STATE": "VA", "ZIP": "22903", "STFIP": "51", "CNTY": "51540", "NMCNTY": "Charlottesville city", "LOCALE": "13", "LAT": 38.039854, "LON": -78.486567, "type": "public", "county": "540" }, "geometry": { "type": "Point", "coordinates": [ -78.486567, 38.039853999084094 ] } },
{ "type": "Feature", "properties": { "id": "510009000025", "NAME": "Joseph T. Henley Middle", "STREET": "5880 Rockfish Gap Turnpike", "CITY": "Crozet", "STATE": "VA", "ZIP": "22932", "STFIP": "51", "CNTY": "51003", "NMCNTY": "Albemarle County", "LOCALE": "41", "LAT": 38.052143, "LON": -78.705787, "type": "public", "county": "003" }, "geometry": { "type": "Point", "coordinates": [ -78.705787, 38.052142999084005 ] } },
{ "type": "Feature", "properties": { "id": "510009000026", "NAME": "Leslie H. Walton Middle", "STREET": "4217 Red Hill Rd", "CITY": "Charlottesville", "STATE": "VA", "ZIP": "22903", "STFIP": "51", "CNTY": "51003", "NMCNTY": "Albemarle County", "LOCALE": "41", "LAT": 37.921497, "LON": -78.552238, "type": "public", "county": "003" }, "geometry": { "type": "Point", "coordinates": [ -78.552238, 37.921496999085036 ] } },
{ "type": "Feature", "properties": { "id": "510009000027", "NAME": "Mary Carr Greer Elementary", "STREET": "190 Lambs Lane", "CITY": "Charlottesville", "STATE": "VA", "ZIP": "22901", "STFIP": "51", "CNTY": "51003", "NMCNTY": "Albemarle County", "LOCALE": "41", "LAT": 38.078942, "LON": -78.505822, "type": "public", "county": "003" }, "geometry": { "type": "Point", "coordinates": [ -78.505822, 38.078941999083796 ] } },
{ "type": "Feature", "properties": { "id": "510009000028", "NAME": "Meriwether Lewis Elementary", "STREET": "1610 Owensville Road", "CITY": "Charlottesville", "STATE": "VA", "ZIP": "22901", "STFIP": "51", "CNTY": "51003", "NMCNTY": "Albemarle County", "LOCALE": "41", "LAT": 38.0811, "LON": -78.598135, "type": "public", "county": "003" }, "geometry": { "type": "Point", "coordinates": [ -78.598135, 38.081099999083769 ] } },
{ "type": "Feature", "properties": { "id": "510009000029", "NAME": "Red Hill Elementary", "STREET": "3901 Red Hill School Road", "CITY": "North Garden", "STATE": "VA", "ZIP": "22959", "STFIP": "51", "CNTY": "51003", "NMCNTY": "Albemarle County", "LOCALE": "42", "LAT": 37.96429, "LON": -78.634924, "type": "public", "county": "003" }, "geometry": { "type": "Point", "coordinates": [ -78.634924, 37.964289999084698 ] } },
{ "type": "Feature", "properties": { "id": "510009000030", "NAME": "Murray High", "STREET": "1200 Forest Street", "CITY": "Charlottesville", "STATE": "VA", "ZIP": "22903", "STFIP": "51", "CNTY": "51540", "NMCNTY": "Charlottesville city", "LOCALE": "13", "LAT": 38.040712, "LON": -78.48276, "type": "public", "county": "540" }, "geometry": { "type": "Point", "coordinates": [ -78.48276, 38.040711999084088 ] } },
{ "type": "Feature", "properties": { "id": "510009000032", "NAME": "Stone Robinson Elementary", "STREET": "958 North Milton Road", "CITY": "Charlottesville", "STATE": "VA", "ZIP": "22911", "STFIP": "51", "CNTY": "51003", "NMCNTY": "Albemarle County", "LOCALE": "41", "LAT": 38.010629, "LON": -78.396997, "type": "public", "county": "003" }, "geometry": { "type": "Point", "coordinates": [ -78.396997, 38.010628999084332 ] } },
{ "type": "Feature", "properties": { "id": "510009000033", "NAME": "Stony Point Elementary", "STREET": "3893 Stony Point Road", "CITY": "Keswick", "STATE": "VA", "ZIP": "22947", "STFIP": "51", "CNTY": "51003", "NMCNTY": "Albemarle County", "LOCALE": "41", "LAT": 38.111976, "LON": -78.369576, "type": "public", "county": "003" }, "geometry": { "type": "Point", "coordinates": [ -78.369576, 38.111975999083526 ] } },
{ "type": "Feature", "properties": { "id": "510009000035", "NAME": "Western Albemarle High", "STREET": "5941 Rockfish Gap Turnpike", "CITY": "Crozet", "STATE": "VA", "ZIP": "22932", "STFIP": "51", "CNTY": "51003", "NMCNTY": "Albemarle County", "LOCALE": "41", "LAT": 38.047081, "LON": -78.707325, "type": "public", "county": "003" }, "geometry": { "type": "Point", "coordinates": [ -78.707325, 38.047080999084038 ] } },
{ "type": "Feature", "properties": { "id": "510009000036", "NAME": "Woodbrook Elementary", "STREET": "100 Woodbrook Drive", "CITY": "Charlottesville", "STATE": "VA", "ZIP": "22901", "STFIP": "51", "CNTY": "51003", "NMCNTY": "Albemarle County", "LOCALE": "23", "LAT": 38.087137, "LON": -78.466422, "type": "public", "county": "003" }, "geometry": { "type": "Point", "coordinates": [ -78.466422, 38.087136999083725 ] } },
{ "type": "Feature", "properties": { "id": "510009000751", "NAME": "Mortimer Y. Sutherland Middle", "STREET": "2801 Powell Creek Drive", "CITY": "Charlottesville", "STATE": "VA", "ZIP": "22911", "STFIP": "51", "CNTY": "51003", "NMCNTY": "Albemarle County", "LOCALE": "23", "LAT": 38.112441, "LON": -78.436908, "type": "public", "county": "003" }, "geometry": { "type": "Point", "coordinates": [ -78.436908, 38.112440999083532 ] } },
{ "type": "Feature", "properties": { "id": "510009001747", "NAME": "Monticello High", "STREET": "1400 Independence Way", "CITY": "Charlottesville", "STATE": "VA", "ZIP": "22902", "STFIP": "51", "CNTY": "51003", "NMCNTY": "Albemarle County", "LOCALE": "23", "LAT": 37.998854, "LON": -78.489226, "type": "public", "county": "003" }, "geometry": { "type": "Point", "coordinates": [ -78.489226, 37.998853999084425 ] } },
{ "type": "Feature", "properties": { "id": "510009001882", "NAME": "Scottsville Elementary", "STREET": "7868 Scottsville Road", "CITY": "Scottsville", "STATE": "VA", "ZIP": "24590", "STFIP": "51", "CNTY": "51003", "NMCNTY": "Albemarle County", "LOCALE": "42", "LAT": 37.818468, "LON": -78.510832, "type": "public", "county": "003" }, "geometry": { "type": "Point", "coordinates": [ -78.510832, 37.818467999085875 ] } },
{ "type": "Feature", "properties": { "id": "510009001937", "NAME": "Baker-Butler Elem", "STREET": "2740 Proffit Road", "CITY": "Charlottesville", "STATE": "VA", "ZIP": "22911", "STFIP": "51", "CNTY": "51003", "NMCNTY": "Albemarle County", "LOCALE": "23", "LAT": 38.123083, "LON": -78.420544, "type": "public", "county": "003" }, "geometry": { "type": "Point", "coordinates": [ -78.420544, 38.123082999083451 ] } },
{ "type": "Feature", "properties": { "id": "510009002173", "NAME": "Paul H. Cale Elementary", "STREET": "1757 Avon Street Extended", "CITY": "Charlottesville", "STATE": "VA", "ZIP": "22902", "STFIP": "51", "CNTY": "51003", "NMCNTY": "Albemarle County", "LOCALE": "23", "LAT": 37.996295, "LON": -78.499535, "type": "public", "county": "003" }, "geometry": { "type": "Point", "coordinates": [ -78.499535, 37.996294999084448 ] } },
{ "type": "Feature", "properties": { "id": "510009002796", "NAME": "Albemarle County Community Public Charter School", "STREET": "1200 Forest Street", "CITY": "Charlottesville", "STATE": "VA", "ZIP": "22903", "STFIP": "51", "CNTY": "51540", "NMCNTY": "Charlottesville city", "LOCALE": "13", "LAT": 38.04102, "LON": -78.482781, "type": "public", "county": "540" }, "geometry": { "type": "Point", "coordinates": [ -78.482781, 38.041019999084085 ] } },
{ "type": "Feature", "properties": { "id": "510009002974", "NAME": "Monticello Governor's Health Sciences Academy", "STREET": "1400 Independence Way", "CITY": "Charlottesville", "STATE": "VA", "ZIP": "22902", "STFIP": "51", "CNTY": "51003", "NMCNTY": "Albemarle County", "LOCALE": "23", "LAT": 38.00002, "LON": -78.490861, "type": "public", "county": "003" }, "geometry": { "type": "Point", "coordinates": [ -78.490861, 38.000019999084401 ] } },
{ "type": "Feature", "properties": { "id": "510009802368", "NAME": "Shenandoah Valley Reg Alternative Ed\/Genesis", "STREET": "1825 Richmond Road", "CITY": "Staunton", "STATE": "VA", "ZIP": "24001", "STFIP": "51", "CNTY": "51790", "NMCNTY": "Staunton city", "LOCALE": "13", "LAT": 38.175244, "LON": -79.087433, "type": "public", "county": "790" }, "geometry": { "type": "Point", "coordinates": [ -79.087433, 38.175243999083044 ] } },
{ "type": "Feature", "properties": { "id": "510030000116", "NAME": "Beverley Manor Elementary", "STREET": "116 Cedar Green Rd", "CITY": "Staunton", "STATE": "VA", "ZIP": "24401", "STFIP": "51", "CNTY": "51015", "NMCNTY": "Augusta County", "LOCALE": "23", "LAT": 38.148976, "LON": -79.120532, "type": "public", "county": "015" }, "geometry": { "type": "Point", "coordinates": [ -79.120532, 38.148975999083241 ] } },
{ "type": "Feature", "properties": { "id": "510030000117", "NAME": "Buffalo Gap High", "STREET": "1800 Buffalo Gap Hwy", "CITY": "Swoope", "STATE": "VA", "ZIP": "24479", "STFIP": "51", "CNTY": "51015", "NMCNTY": "Augusta County", "LOCALE": "42", "LAT": 38.19412, "LON": -79.217968, "type": "public", "county": "015" }, "geometry": { "type": "Point", "coordinates": [ -79.217968, 38.194119999082893 ] } },
{ "type": "Feature", "properties": { "id": "510030000118", "NAME": "Cassell Elementary", "STREET": "1301 Rockfish Rd", "CITY": "Waynesboro", "STATE": "VA", "ZIP": "22980", "STFIP": "51", "CNTY": "51015", "NMCNTY": "Augusta County", "LOCALE": "41", "LAT": 38.13097, "LON": -78.87154, "type": "public", "county": "015" }, "geometry": { "type": "Point", "coordinates": [ -78.87154, 38.130969999083383 ] } },
{ "type": "Feature", "properties": { "id": "510030000119", "NAME": "Churchville Elementary", "STREET": "3710 Churchville Ave", "CITY": "Churchville", "STATE": "VA", "ZIP": "24421", "STFIP": "51", "CNTY": "51015", "NMCNTY": "Augusta County", "LOCALE": "41", "LAT": 38.222266, "LON": -79.160262, "type": "public", "county": "015" }, "geometry": { "type": "Point", "coordinates": [ -79.160262, 38.222265999082673 ] } },
{ "type": "Feature", "properties": { "id": "510030000120", "NAME": "Craigsville Elementary", "STREET": "100 East First St", "CITY": "Craigsville", "STATE": "VA", "ZIP": "24430", "STFIP": "51", "CNTY": "51015", "NMCNTY": "Augusta County", "LOCALE": "42", "LAT": 38.081952, "LON": -79.380661, "type": "public", "county": "015" }, "geometry": { "type": "Point", "coordinates": [ -79.380661, 38.08195199908377 ] } },
{ "type": "Feature", "properties": { "id": "510030000124", "NAME": "Fort Defiance High", "STREET": "195 Fort Defiance Rd", "CITY": "Fort Defiance", "STATE": "VA", "ZIP": "24437", "STFIP": "51", "CNTY": "51015", "NMCNTY": "Augusta County", "LOCALE": "41", "LAT": 38.247109, "LON": -78.973756, "type": "public", "county": "015" }, "geometry": { "type": "Point", "coordinates": [ -78.973756, 38.247108999082492 ] } },
{ "type": "Feature", "properties": { "id": "510030000127", "NAME": "North River Elementary", "STREET": "3395 Scenic Hwy", "CITY": "Mount Solon", "STATE": "VA", "ZIP": "22843", "STFIP": "51", "CNTY": "51015", "NMCNTY": "Augusta County", "LOCALE": "42", "LAT": 38.314711, "LON": -79.079019, "type": "public", "county": "015" }, "geometry": { "type": "Point", "coordinates": [ -79.079019, 38.314710999081989 ] } },
{ "type": "Feature", "properties": { "id": "510030000128", "NAME": "Riverheads Elementary", "STREET": "239 Don Hanger Circle", "CITY": "Staunton", "STATE": "VA", "ZIP": "24401", "STFIP": "51", "CNTY": "51015", "NMCNTY": "Augusta County", "LOCALE": "42", "LAT": 38.036003, "LON": -79.141368, "type": "public", "county": "015" }, "geometry": { "type": "Point", "coordinates": [ -79.141368, 38.036002999084126 ] } },
{ "type": "Feature", "properties": { "id": "510030000129", "NAME": "Riverheads High", "STREET": "19 Howardsville Rd", "CITY": "Staunton", "STATE": "VA", "ZIP": "24401", "STFIP": "51", "CNTY": "51015", "NMCNTY": "Augusta County", "LOCALE": "42", "LAT": 38.03278, "LON": -79.140057, "type": "public", "county": "015" }, "geometry": { "type": "Point", "coordinates": [ -79.140057, 38.032779999084156 ] } },
{ "type": "Feature", "properties": { "id": "510030000130", "NAME": "Stuarts Draft Middle", "STREET": "1088 Augusta Farm Rd", "CITY": "Stuarts Draft", "STATE": "VA", "ZIP": "24477", "STFIP": "51", "CNTY": "51015", "NMCNTY": "Augusta County", "LOCALE": "31", "LAT": 38.04489, "LON": -79.00994, "type": "public", "county": "015" }, "geometry": { "type": "Point", "coordinates": [ -79.00994, 38.044889999084063 ] } },
{ "type": "Feature", "properties": { "id": "510030000131", "NAME": "Stuarts Draft Elementary", "STREET": "63 School Blvd", "CITY": "Stuarts Draft", "STATE": "VA", "ZIP": "24477", "STFIP": "51", "CNTY": "51015", "NMCNTY": "Augusta County", "LOCALE": "31", "LAT": 38.047319, "LON": -79.00783, "type": "public", "county": "015" }, "geometry": { "type": "Point", "coordinates": [ -79.00783, 38.047318999084041 ] } },
{ "type": "Feature", "properties": { "id": "510030000132", "NAME": "Stuarts Draft High", "STREET": "1028 Augusta Farm Rd", "CITY": "Stuarts Draft", "STATE": "VA", "ZIP": "24477", "STFIP": "51", "CNTY": "51015", "NMCNTY": "Augusta County", "LOCALE": "31", "LAT": 38.046556, "LON": -79.012867, "type": "public", "county": "015" }, "geometry": { "type": "Point", "coordinates": [ -79.012867, 38.046555999084056 ] } },
{ "type": "Feature", "properties": { "id": "510030000135", "NAME": "Verona Elementary", "STREET": "1011 Lee Hwy", "CITY": "Verona", "STATE": "VA", "ZIP": "24482", "STFIP": "51", "CNTY": "51015", "NMCNTY": "Augusta County", "LOCALE": "23", "LAT": 38.219932, "LON": -78.99415, "type": "public", "county": "015" }, "geometry": { "type": "Point", "coordinates": [ -78.99415, 38.219931999082696 ] } },
{ "type": "Feature", "properties": { "id": "510030000137", "NAME": "Wilson Elementary", "STREET": "127 Woodrow Wilson Ave", "CITY": "Fishersville", "STATE": "VA", "ZIP": "22939", "STFIP": "51", "CNTY": "51015", "NMCNTY": "Augusta County", "LOCALE": "41", "LAT": 38.114338, "LON": -78.990334, "type": "public", "county": "015" }, "geometry": { "type": "Point", "coordinates": [ -78.990334, 38.114337999083503 ] } },
{ "type": "Feature", "properties": { "id": "510030000138", "NAME": "Wilson Memorial High", "STREET": "189 Hornet Rd", "CITY": "Fishersville", "STATE": "VA", "ZIP": "22939", "STFIP": "51", "CNTY": "51015", "NMCNTY": "Augusta County", "LOCALE": "41", "LAT": 38.121056, "LON": -78.984679, "type": "public", "county": "015" }, "geometry": { "type": "Point", "coordinates": [ -78.984679, 38.121055999083467 ] } },
{ "type": "Feature", "properties": { "id": "510030001080", "NAME": "Edward G. Clymore Elementary", "STREET": "184 Fort Defiance Rd", "CITY": "Fort Defiance", "STATE": "VA", "ZIP": "24437", "STFIP": "51", "CNTY": "51015", "NMCNTY": "Augusta County", "LOCALE": "41", "LAT": 38.246191, "LON": -78.97633, "type": "public", "county": "015" }, "geometry": { "type": "Point", "coordinates": [ -78.97633, 38.246190999082501 ] } },
{ "type": "Feature", "properties": { "id": "510030001830", "NAME": "S. Gordon Stewart Middle", "STREET": "118 Fort Defiance Rd", "CITY": "Fort Defiance", "STATE": "VA", "ZIP": "24437", "STFIP": "51", "CNTY": "51015", "NMCNTY": "Augusta County", "LOCALE": "41", "LAT": 38.244025, "LON": -78.97627, "type": "public", "county": "015" }, "geometry": { "type": "Point", "coordinates": [ -78.97627, 38.244024999082505 ] } },
{ "type": "Feature", "properties": { "id": "510030001901", "NAME": "Guy K. Stump Elementary", "STREET": "115 Draft Ave", "CITY": "Stuarts Draft", "STATE": "VA", "ZIP": "24477", "STFIP": "51", "CNTY": "51015", "NMCNTY": "Augusta County", "LOCALE": "31", "LAT": 38.030024, "LON": -79.034856, "type": "public", "county": "015" }, "geometry": { "type": "Point", "coordinates": [ -79.034856, 38.030023999084172 ] } },
{ "type": "Feature", "properties": { "id": "510030002140", "NAME": "Beverley Manor Middle", "STREET": "58 Cedar Green Rd", "CITY": "Staunton", "STATE": "VA", "ZIP": "24401", "STFIP": "51", "CNTY": "51015", "NMCNTY": "Augusta County", "LOCALE": "23", "LAT": 38.148906, "LON": -79.120195, "type": "public", "county": "015" }, "geometry": { "type": "Point", "coordinates": [ -79.120195, 38.14890599908324 ] } },
{ "type": "Feature", "properties": { "id": "510030002435", "NAME": "Wilson Middle", "STREET": "232 Hornet Road", "CITY": "Fishersville", "STATE": "VA", "ZIP": "22939", "STFIP": "51", "CNTY": "51015", "NMCNTY": "Augusta County", "LOCALE": "23", "LAT": 38.120708, "LON": -78.98767, "type": "public", "county": "015" }, "geometry": { "type": "Point", "coordinates": [ -78.98767, 38.120707999083464 ] } },
{ "type": "Feature", "properties": { "id": "510054000209", "NAME": "Buckingham County Middle", "STREET": "1184 High School Rd.", "CITY": "Buckingham", "STATE": "VA", "ZIP": "23921", "STFIP": "51", "CNTY": "51029", "NMCNTY": "Buckingham County", "LOCALE": "43", "LAT": 37.536031, "LON": -78.502363, "type": "public", "county": "029" }, "geometry": { "type": "Point", "coordinates": [ -78.502363, 37.536030999088204 ] } },
{ "type": "Feature", "properties": { "id": "510054000210", "NAME": "Buckingham County High", "STREET": "78 Knights Rd.", "CITY": "Buckingham", "STATE": "VA", "ZIP": "23921", "STFIP": "51", "CNTY": "51029", "NMCNTY": "Buckingham County", "LOCALE": "43", "LAT": 37.541287, "LON": -78.510833, "type": "public", "county": "029" }, "geometry": { "type": "Point", "coordinates": [ -78.510833, 37.541286999088157 ] } },
{ "type": "Feature", "properties": { "id": "510054002867", "NAME": "Buckingham Co Prekindergarten Center", "STREET": "77 Buckingham Primary School R", "CITY": "Buckingham", "STATE": "VA", "ZIP": "23921", "STFIP": "51", "CNTY": "51029", "NMCNTY": "Buckingham County", "LOCALE": "43", "LAT": 37.542607, "LON": -78.508842, "type": "public", "county": "029" }, "geometry": { "type": "Point", "coordinates": [ -78.508842, 37.54260699908815 ] } },
{ "type": "Feature", "properties": { "id": "510054002869", "NAME": "Buckingham Co Primary", "STREET": "128 Frank Harris Road", "CITY": "Dillwyn", "STATE": "VA", "ZIP": "23936", "STFIP": "51", "CNTY": "51029", "NMCNTY": "Buckingham County", "LOCALE": "43", "LAT": 37.554223, "LON": -78.484582, "type": "public", "county": "029" }, "geometry": { "type": "Point", "coordinates": [ -78.484582, 37.554222999088054 ] } },
{ "type": "Feature", "properties": { "id": "510054002870", "NAME": "Buckingham Co Elementary", "STREET": "40 Frank Harris Raod", "CITY": "Dillwyn", "STATE": "VA", "ZIP": "23936", "STFIP": "51", "CNTY": "51029", "NMCNTY": "Buckingham County", "LOCALE": "43", "LAT": 37.553835, "LON": -78.484397, "type": "public", "county": "029" }, "geometry": { "type": "Point", "coordinates": [ -78.484397, 37.55383499908806 ] } },
{ "type": "Feature", "properties": { "id": "510078000266", "NAME": "Johnson Elementary", "STREET": "1645 Cherry Avenue", "CITY": "Charlottesville", "STATE": "VA", "ZIP": "22903", "STFIP": "51", "CNTY": "51540", "NMCNTY": "Charlottesville city", "LOCALE": "13", "LAT": 38.021879, "LON": -78.50614, "type": "public", "county": "540" }, "geometry": { "type": "Point", "coordinates": [ -78.50614, 38.021878999084244 ] } },
{ "type": "Feature", "properties": { "id": "510078000271", "NAME": "Buford Middle", "STREET": "1000 Cherry Avenue", "CITY": "Charlottesville", "STATE": "VA", "ZIP": "22903", "STFIP": "51", "CNTY": "51540", "NMCNTY": "Charlottesville city", "LOCALE": "13", "LAT": 38.026162, "LON": -78.497047, "type": "public", "county": "540" }, "geometry": { "type": "Point", "coordinates": [ -78.497047, 38.026161999084209 ] } },
{ "type": "Feature", "properties": { "id": "510078000272", "NAME": "Burnley-Moran Elementary", "STREET": "1300 Long Street", "CITY": "Charlottesville", "STATE": "VA", "ZIP": "22901", "STFIP": "51", "CNTY": "51540", "NMCNTY": "Charlottesville city", "LOCALE": "13", "LAT": 38.035466, "LON": -78.46289, "type": "public", "county": "540" }, "geometry": { "type": "Point", "coordinates": [ -78.46289, 38.035465999084117 ] } },
{ "type": "Feature", "properties": { "id": "510078000273", "NAME": "Charlottesville High", "STREET": "1400 Melbourne Road", "CITY": "Charlottesville", "STATE": "VA", "ZIP": "22901", "STFIP": "51", "CNTY": "51540", "NMCNTY": "Charlottesville city", "LOCALE": "13", "LAT": 38.052405, "LON": -78.476628, "type": "public", "county": "540" }, "geometry": { "type": "Point", "coordinates": [ -78.476628, 38.052404999084004 ] } },
{ "type": "Feature", "properties": { "id": "510078000275", "NAME": "Greenbrier Elementary", "STREET": "2228 Greenbrier Drive", "CITY": "Charlottesville", "STATE": "VA", "ZIP": "22901", "STFIP": "51", "CNTY": "51540", "NMCNTY": "Charlottesville city", "LOCALE": "13", "LAT": 38.063507, "LON": -78.47093, "type": "public", "county": "540" }, "geometry": { "type": "Point", "coordinates": [ -78.47093, 38.063506999083913 ] } },
{ "type": "Feature", "properties": { "id": "510078000276", "NAME": "Jackson-Via Elementary", "STREET": "508 Harris Road", "CITY": "Charlottesville", "STATE": "VA", "ZIP": "22903", "STFIP": "51", "CNTY": "51540", "NMCNTY": "Charlottesville city", "LOCALE": "13", "LAT": 38.014072, "LON": -78.503925, "type": "public", "county": "540" }, "geometry": { "type": "Point", "coordinates": [ -78.503925, 38.014071999084301 ] } },
{ "type": "Feature", "properties": { "id": "510078000279", "NAME": "Walker Upper Elementary", "STREET": "1564 Dairy Road", "CITY": "Charlottesville", "STATE": "VA", "ZIP": "22903", "STFIP": "51", "CNTY": "51540", "NMCNTY": "Charlottesville city", "LOCALE": "13", "LAT": 38.053821, "LON": -78.483629, "type": "public", "county": "540" }, "geometry": { "type": "Point", "coordinates": [ -78.483629, 38.053820999083989 ] } },
{ "type": "Feature", "properties": { "id": "510078002110", "NAME": "Clark Elementary", "STREET": "1000 Belmont Avenue", "CITY": "Charlottesville", "STATE": "VA", "ZIP": "22902", "STFIP": "51", "CNTY": "51540", "NMCNTY": "Charlottesville city", "LOCALE": "13", "LAT": 38.022765, "LON": -78.474557, "type": "public", "county": "540" }, "geometry": { "type": "Point", "coordinates": [ -78.474557, 38.022764999084224 ] } },
{ "type": "Feature", "properties": { "id": "510078002143", "NAME": "Venable Elementary", "STREET": "406 14th Street NW", "CITY": "Charlottesville", "STATE": "VA", "ZIP": "22903", "STFIP": "51", "CNTY": "51540", "NMCNTY": "Charlottesville city", "LOCALE": "13", "LAT": 38.038462, "LON": -78.496329, "type": "public", "county": "540" }, "geometry": { "type": "Point", "coordinates": [ -78.496329, 38.038461999084113 ] } },
{ "type": "Feature", "properties": { "id": "510078002550", "NAME": "Charlottesville Alternative", "STREET": "341 11th Street NW", "CITY": "Charlottesville", "STATE": "VA", "ZIP": "22903", "STFIP": "51", "CNTY": "51540", "NMCNTY": "Charlottesville city", "LOCALE": "13", "LAT": 38.03711, "LON": -78.494701, "type": "public", "county": "540" }, "geometry": { "type": "Point", "coordinates": [ -78.494701, 38.037109999084109 ] } },
{ "type": "Feature", "properties": { "id": "510138000089", "NAME": "Fluvanna Middle", "STREET": "3717 Central Plains Road", "CITY": "Palmyra", "STATE": "VA", "ZIP": "22963", "STFIP": "51", "CNTY": "51065", "NMCNTY": "Fluvanna County", "LOCALE": "42", "LAT": 37.813622, "LON": -78.244316, "type": "public", "county": "065" }, "geometry": { "type": "Point", "coordinates": [ -78.244316, 37.81362199908591 ] } },
{ "type": "Feature", "properties": { "id": "510138000622", "NAME": "Carysbrook Elementary", "STREET": "9172 James Madison Highway", "CITY": "Fork Union", "STATE": "VA", "ZIP": "23055", "STFIP": "51", "CNTY": "51065", "NMCNTY": "Fluvanna County", "LOCALE": "42", "LAT": 37.823205, "LON": -78.278004, "type": "public", "county": "065" }, "geometry": { "type": "Point", "coordinates": [ -78.278004, 37.823204999085824 ] } },
{ "type": "Feature", "properties": { "id": "510138000625", "NAME": "Fluvanna County High", "STREET": "1918 Thomas Jefferson Parkway", "CITY": "Palmyra", "STATE": "VA", "ZIP": "22963", "STFIP": "51", "CNTY": "51065", "NMCNTY": "Fluvanna County", "LOCALE": "41", "LAT": 37.872316, "LON": -78.298589, "type": "public", "county": "065" }, "geometry": { "type": "Point", "coordinates": [ -78.298589, 37.87231599908543 ] } },
{ "type": "Feature", "properties": { "id": "510138002868", "NAME": "Central Elementary", "STREET": "3340 Central Plains Road", "CITY": "Palmyra", "STATE": "VA", "ZIP": "22963", "STFIP": "51", "CNTY": "51065", "NMCNTY": "Fluvanna County", "LOCALE": "42", "LAT": 37.823278, "LON": -78.276972, "type": "public", "county": "065" }, "geometry": { "type": "Point", "coordinates": [ -78.276972, 37.823277999085825 ] } },
{ "type": "Feature", "properties": { "id": "510138002956", "NAME": "West Central Primary School", "STREET": "3340 Central Plains Road", "CITY": "Palmyra", "STATE": "VA", "ZIP": "22963", "STFIP": "51", "CNTY": "51065", "NMCNTY": "Fluvanna County", "LOCALE": "42", "LAT": 37.82331, "LON": -78.277828, "type": "public", "county": "065" }, "geometry": { "type": "Point", "coordinates": [ -78.277828, 37.823309999085836 ] } },
{ "type": "Feature", "properties": { "id": "510171000106", "NAME": "William Monroe Middle", "STREET": "148 Monroe Dr", "CITY": "Stanardsville", "STATE": "VA", "ZIP": "22973", "STFIP": "51", "CNTY": "51079", "NMCNTY": "Greene County", "LOCALE": "31", "LAT": 38.295159, "LON": -78.443108, "type": "public", "county": "079" }, "geometry": { "type": "Point", "coordinates": [ -78.443108, 38.295158999082126 ] } },
{ "type": "Feature", "properties": { "id": "510171000700", "NAME": "Nathanael Greene Primary School", "STREET": "64 Monroe Drive", "CITY": "Stanardsville", "STATE": "VA", "ZIP": "22973", "STFIP": "51", "CNTY": "51079", "NMCNTY": "Greene County", "LOCALE": "31", "LAT": 38.296206, "LON": -78.444379, "type": "public", "county": "079" }, "geometry": { "type": "Point", "coordinates": [ -78.444379, 38.296205999082119 ] } },
{ "type": "Feature", "properties": { "id": "510171000702", "NAME": "William Monroe High", "STREET": "254 Monroe Drive", "CITY": "Stanardsville", "STATE": "VA", "ZIP": "22973", "STFIP": "51", "CNTY": "51079", "NMCNTY": "Greene County", "LOCALE": "31", "LAT": 38.293789, "LON": -78.443466, "type": "public", "county": "079" }, "geometry": { "type": "Point", "coordinates": [ -78.443466, 38.293788999082125 ] } },
{ "type": "Feature", "properties": { "id": "510171001382", "NAME": "Greene County Technical Education Center", "STREET": "10415 Spotswood Trail", "CITY": "Standardsville", "STATE": "VA", "ZIP": "22973", "STFIP": "51", "CNTY": "51079", "NMCNTY": "Greene County", "LOCALE": "41", "LAT": 38.281135, "LON": -78.415778, "type": "public", "county": "079" }, "geometry": { "type": "Point", "coordinates": [ -78.415778, 38.281134999082226 ] } },
{ "type": "Feature", "properties": { "id": "510171001802", "NAME": "Ruckersville Elementary", "STREET": "105 Progress Place", "CITY": "Ruckersville", "STATE": "VA", "ZIP": "22968", "STFIP": "51", "CNTY": "51079", "NMCNTY": "Greene County", "LOCALE": "41", "LAT": 38.243, "LON": -78.388768, "type": "public", "county": "079" }, "geometry": { "type": "Point", "coordinates": [ -78.388768, 38.242999999082528 ] } },
{ "type": "Feature", "properties": { "id": "510171002190", "NAME": "Nathanael Greene Elementary", "STREET": "8094 Spotswood Trail", "CITY": "Stanardsville", "STATE": "VA", "ZIP": "22973", "STFIP": "51", "CNTY": "51079", "NMCNTY": "Greene County", "LOCALE": "31", "LAT": 38.296081, "LON": -78.446247, "type": "public", "county": "079" }, "geometry": { "type": "Point", "coordinates": [ -78.446247, 38.296080999082115 ] } },
{ "type": "Feature", "properties": { "id": "510171002439", "NAME": "Alternative Education Center", "STREET": "254 Monroe Drive", "CITY": "Stanardsville", "STATE": "VA", "ZIP": "22973", "STFIP": "51", "CNTY": "51079", "NMCNTY": "Greene County", "LOCALE": "31", "LAT": 38.29359, "LON": -78.443531, "type": "public", "county": "079" }, "geometry": { "type": "Point", "coordinates": [ -78.443531, 38.293589999082137 ] } },
{ "type": "Feature", "properties": { "id": "510228000939", "NAME": "Louisa County High", "STREET": "757 Davis Hwy", "CITY": "Mineral", "STATE": "VA", "ZIP": "23117", "STFIP": "51", "CNTY": "51109", "NMCNTY": "Louisa County", "LOCALE": "42", "LAT": 38.017502, "LON": -77.921068, "type": "public", "county": "109" }, "geometry": { "type": "Point", "coordinates": [ -77.921068, 38.017501999084274 ] } },
{ "type": "Feature", "properties": { "id": "510228000942", "NAME": "Thomas Jefferson Elementary", "STREET": "1782 Jefferson Hwy", "CITY": "Louisa", "STATE": "VA", "ZIP": "23093", "STFIP": "51", "CNTY": "51109", "NMCNTY": "Louisa County", "LOCALE": "42", "LAT": 37.99461, "LON": -77.962341, "type": "public", "county": "109" }, "geometry": { "type": "Point", "coordinates": [ -77.962341, 37.994609999084453 ] } },
{ "type": "Feature", "properties": { "id": "510228001930", "NAME": "Louisa County Middle", "STREET": "1009 Davis Hwy", "CITY": "Mineral", "STATE": "VA", "ZIP": "23117", "STFIP": "51", "CNTY": "51109", "NMCNTY": "Louisa County", "LOCALE": "42", "LAT": 38.020322, "LON": -77.925333, "type": "public", "county": "109" }, "geometry": { "type": "Point", "coordinates": [ -77.925333, 38.020321999084246 ] } },
{ "type": "Feature", "properties": { "id": "510228002036", "NAME": "Jouett Elementary", "STREET": "315 Jouett School Rd", "CITY": "Mineral", "STATE": "VA", "ZIP": "23117", "STFIP": "51", "CNTY": "51109", "NMCNTY": "Louisa County", "LOCALE": "42", "LAT": 37.897893, "LON": -77.843548, "type": "public", "county": "109" }, "geometry": { "type": "Point", "coordinates": [ -77.843548, 37.897892999085229 ] } },
{ "type": "Feature", "properties": { "id": "510228002066", "NAME": "Trevilians Elementary", "STREET": "2035 Spotswood Trail", "CITY": "Louisa", "STATE": "VA", "ZIP": "23093", "STFIP": "51", "CNTY": "51109", "NMCNTY": "Louisa County", "LOCALE": "42", "LAT": 38.075431, "LON": -78.100135, "type": "public", "county": "109" }, "geometry": { "type": "Point", "coordinates": [ -78.100135, 38.075430999083821 ] } },
{ "type": "Feature", "properties": { "id": "510228002838", "NAME": "Moss-Nuckols Elementary", "STREET": "2055 Courthouse Road", "CITY": "Louisa", "STATE": "VA", "ZIP": "23093", "STFIP": "51", "CNTY": "51109", "NMCNTY": "Louisa County", "LOCALE": "42", "LAT": 37.95612, "LON": -78.088991, "type": "public", "county": "109" }, "geometry": { "type": "Point", "coordinates": [ -78.088991, 37.95611999908477 ] } },
{ "type": "Feature", "properties": { "id": "510237000972", "NAME": "Madison County High", "STREET": "68 Mountaineer Lane", "CITY": "Madison", "STATE": "VA", "ZIP": "22727", "STFIP": "51", "CNTY": "51113", "NMCNTY": "Madison County", "LOCALE": "42", "LAT": 38.364594, "LON": -78.268496, "type": "public", "county": "113" }, "geometry": { "type": "Point", "coordinates": [ -78.268496, 38.364593999081599 ] } },
{ "type": "Feature", "properties": { "id": "510237000973", "NAME": "Madison Primary", "STREET": "158 Primary School Drive", "CITY": "Madison", "STATE": "VA", "ZIP": "22727", "STFIP": "51", "CNTY": "51113", "NMCNTY": "Madison County", "LOCALE": "42", "LAT": 38.359348, "LON": -78.263378, "type": "public", "county": "113" }, "geometry": { "type": "Point", "coordinates": [ -78.263378, 38.359347999081635 ] } },
{ "type": "Feature", "properties": { "id": "510237000974", "NAME": "Waverly Yowell Elementary", "STREET": "1809 North Main Street", "CITY": "Madison", "STATE": "VA", "ZIP": "22727", "STFIP": "51", "CNTY": "51113", "NMCNTY": "Madison County", "LOCALE": "42", "LAT": 38.384902, "LON": -78.252028, "type": "public", "county": "113" }, "geometry": { "type": "Point", "coordinates": [ -78.252028, 38.384901999081436 ] } },
{ "type": "Feature", "properties": { "id": "510237000975", "NAME": "William H. Wetsel Middle", "STREET": "186 Mountaineer Lane", "CITY": "Madison", "STATE": "VA", "ZIP": "22727", "STFIP": "51", "CNTY": "51113", "NMCNTY": "Madison County", "LOCALE": "42", "LAT": 38.36389, "LON": -78.267175, "type": "public", "county": "113" }, "geometry": { "type": "Point", "coordinates": [ -78.267175, 38.3638899990816 ] } },
{ "type": "Feature", "properties": { "id": "510258001032", "NAME": "Nelson County High", "STREET": "6919 Thomas Nelson Hwy", "CITY": "Lovingston", "STATE": "VA", "ZIP": "22949", "STFIP": "51", "CNTY": "51125", "NMCNTY": "Nelson County", "LOCALE": "42", "LAT": 37.732459, "LON": -78.896919, "type": "public", "county": "125" }, "geometry": { "type": "Point", "coordinates": [ -78.896919, 37.732458999086568 ] } },
{ "type": "Feature", "properties": { "id": "510258001033", "NAME": "Nelson Middle", "STREET": "6925 Thomas Nelson Highway", "CITY": "Lovingston", "STATE": "VA", "ZIP": "22949", "STFIP": "51", "CNTY": "51125", "NMCNTY": "Nelson County", "LOCALE": "42", "LAT": 37.733342, "LON": -78.895042, "type": "public", "county": "125" }, "geometry": { "type": "Point", "coordinates": [ -78.895042, 37.733341999086562 ] } },
{ "type": "Feature", "properties": { "id": "510258001160", "NAME": "Tye River Elementary", "STREET": "5198 Thomas Nelson Hwy", "CITY": "Arrington", "STATE": "VA", "ZIP": "22922", "STFIP": "51", "CNTY": "51125", "NMCNTY": "Nelson County", "LOCALE": "42", "LAT": 37.710027, "LON": -78.913013, "type": "public", "county": "125" }, "geometry": { "type": "Point", "coordinates": [ -78.913013, 37.710026999086743 ] } },
{ "type": "Feature", "properties": { "id": "510258001917", "NAME": "Rockfish River Elementary", "STREET": "200 Chapel Hollow Rd", "CITY": "Afton", "STATE": "VA", "ZIP": "22920", "STFIP": "51", "CNTY": "51125", "NMCNTY": "Nelson County", "LOCALE": "42", "LAT": 37.944846, "LON": -78.838605, "type": "public", "county": "125" }, "geometry": { "type": "Point", "coordinates": [ -78.838605, 37.944845999084848 ] } },
{ "type": "Feature", "properties": { "id": "510282001172", "NAME": "Gordon-Barbour Elementary", "STREET": "500 W Baker Street", "CITY": "Gordonsville", "STATE": "VA", "ZIP": "22942", "STFIP": "51", "CNTY": "51137", "NMCNTY": "Orange County", "LOCALE": "42", "LAT": 38.138127, "LON": -78.192894, "type": "public", "county": "137" }, "geometry": { "type": "Point", "coordinates": [ -78.192894, 38.138126999083319 ] } },
{ "type": "Feature", "properties": { "id": "510282001173", "NAME": "Lightfoot Elementary", "STREET": "11360 Zachary Taylor Hwy", "CITY": "Unionville", "STATE": "VA", "ZIP": "22567", "STFIP": "51", "CNTY": "51137", "NMCNTY": "Orange County", "LOCALE": "42", "LAT": 38.246195, "LON": -77.953655, "type": "public", "county": "137" }, "geometry": { "type": "Point", "coordinates": [ -77.953655, 38.246194999082498 ] } },
{ "type": "Feature", "properties": { "id": "510282001174", "NAME": "Orange County High", "STREET": "201 Selma Road", "CITY": "Orange", "STATE": "VA", "ZIP": "22960", "STFIP": "51", "CNTY": "51137", "NMCNTY": "Orange County", "LOCALE": "32", "LAT": 38.245245, "LON": -78.096128, "type": "public", "county": "137" }, "geometry": { "type": "Point", "coordinates": [ -78.096128, 38.245244999082502 ] } },
{ "type": "Feature", "properties": { "id": "510282001175", "NAME": "Orange Elementary", "STREET": "230 Montevista Avenue", "CITY": "Orange", "STATE": "VA", "ZIP": "22960", "STFIP": "51", "CNTY": "51137", "NMCNTY": "Orange County", "LOCALE": "32", "LAT": 38.247816, "LON": -78.118295, "type": "public", "county": "137" }, "geometry": { "type": "Point", "coordinates": [ -78.118295, 38.247815999082476 ] } },
{ "type": "Feature", "properties": { "id": "510282001176", "NAME": "Prospect Heights Middle", "STREET": "202 Dailey Drive", "CITY": "Orange", "STATE": "VA", "ZIP": "22960", "STFIP": "51", "CNTY": "51137", "NMCNTY": "Orange County", "LOCALE": "32", "LAT": 38.239605, "LON": -78.116487, "type": "public", "county": "137" }, "geometry": { "type": "Point", "coordinates": [ -78.116487, 38.239604999082552 ] } },
{ "type": "Feature", "properties": { "id": "510282001177", "NAME": "Unionville Elementary", "STREET": "10285 Zachary Taylor Hwy", "CITY": "Unionville", "STATE": "VA", "ZIP": "22567", "STFIP": "51", "CNTY": "51137", "NMCNTY": "Orange County", "LOCALE": "42", "LAT": 38.261857, "LON": -77.955105, "type": "public", "county": "137" }, "geometry": { "type": "Point", "coordinates": [ -77.955105, 38.261856999082376 ] } },
{ "type": "Feature", "properties": { "id": "510282002196", "NAME": "Locust Grove Elementary", "STREET": "31208 Constitution Highway", "CITY": "Locust Grove", "STATE": "VA", "ZIP": "22508", "STFIP": "51", "CNTY": "51137", "NMCNTY": "Orange County", "LOCALE": "42", "LAT": 38.298602, "LON": -77.831531, "type": "public", "county": "137" }, "geometry": { "type": "Point", "coordinates": [ -77.831531, 38.298601999082109 ] } },
{ "type": "Feature", "properties": { "id": "510282002340", "NAME": "Locust Grove Middle", "STREET": "6368 Flat Run Road", "CITY": "Locust Grove", "STATE": "VA", "ZIP": "22508", "STFIP": "51", "CNTY": "51137", "NMCNTY": "Orange County", "LOCALE": "41", "LAT": 38.317594, "LON": -77.781635, "type": "public", "county": "137" }, "geometry": { "type": "Point", "coordinates": [ -77.781635, 38.317593999081957 ] } },
{ "type": "Feature", "properties": { "id": "510282002746", "NAME": "Turning Point Alternative Education", "STREET": "200 Dailey Drive", "CITY": "Orange", "STATE": "VA", "ZIP": "22960", "STFIP": "51", "CNTY": "51137", "NMCNTY": "Orange County", "LOCALE": "41", "LAT": 38.239135, "LON": -78.120125, "type": "public", "county": "137" }, "geometry": { "type": "Point", "coordinates": [ -78.120125, 38.239134999082559 ] } },
{ "type": "Feature", "properties": { "id": "510282002760", "NAME": "Redirection Alternative Education", "STREET": "200 Dailey Drive", "CITY": "Orange", "STATE": "VA", "ZIP": "22960", "STFIP": "51", "CNTY": "51137", "NMCNTY": "Orange County", "LOCALE": "41", "LAT": 38.239185, "LON": -78.120195, "type": "public", "county": "137" }, "geometry": { "type": "Point", "coordinates": [ -78.120195, 38.239184999082553 ] } },
{ "type": "Feature", "properties": { "id": "510282002854", "NAME": "Locust Grove Primary School", "STREET": "31230 Constitution Highway", "CITY": "Locust Grove", "STATE": "VA", "ZIP": "22508", "STFIP": "51", "CNTY": "51137", "NMCNTY": "Orange County", "LOCALE": "42", "LAT": 38.29872, "LON": -77.831608, "type": "public", "county": "137" }, "geometry": { "type": "Point", "coordinates": [ -77.831608, 38.298719999082103 ] } },
{ "type": "Feature", "properties": { "id": "510369001604", "NAME": "Bessie Weller Elementary", "STREET": "600 Greenville Ave", "CITY": "Staunton", "STATE": "VA", "ZIP": "24401", "STFIP": "51", "CNTY": "51790", "NMCNTY": "Staunton city", "LOCALE": "13", "LAT": 38.138285, "LON": -79.072495, "type": "public", "county": "790" }, "geometry": { "type": "Point", "coordinates": [ -79.072495, 38.138284999083339 ] } },
{ "type": "Feature", "properties": { "id": "510369001606", "NAME": "Robert E. Lee High", "STREET": "1200 N Coalter St", "CITY": "Staunton", "STATE": "VA", "ZIP": "24401", "STFIP": "51", "CNTY": "51790", "NMCNTY": "Staunton city", "LOCALE": "13", "LAT": 38.164846, "LON": -79.053291, "type": "public", "county": "790" }, "geometry": { "type": "Point", "coordinates": [ -79.053291, 38.164845999083127 ] } },
{ "type": "Feature", "properties": { "id": "510369001607", "NAME": "Shelburne Middle", "STREET": "300 Grubert Ave", "CITY": "Staunton", "STATE": "VA", "ZIP": "24401", "STFIP": "51", "CNTY": "51790", "NMCNTY": "Staunton city", "LOCALE": "13", "LAT": 38.159596, "LON": -79.099029, "type": "public", "county": "790" }, "geometry": { "type": "Point", "coordinates": [ -79.099029, 38.159595999083159 ] } },
{ "type": "Feature", "properties": { "id": "510369001608", "NAME": "Thomas C. McSwain Elementary", "STREET": "1101 N Coalter St", "CITY": "Staunton", "STATE": "VA", "ZIP": "24401", "STFIP": "51", "CNTY": "51790", "NMCNTY": "Staunton city", "LOCALE": "13", "LAT": 38.163615, "LON": -79.05723, "type": "public", "county": "790" }, "geometry": { "type": "Point", "coordinates": [ -79.05723, 38.16361499908313 ] } },
{ "type": "Feature", "properties": { "id": "510369001610", "NAME": "Arthur R. Ware Elementary", "STREET": "330 Grubert Avenue", "CITY": "Staunton", "STATE": "VA", "ZIP": "24401", "STFIP": "51", "CNTY": "51790", "NMCNTY": "Staunton city", "LOCALE": "13", "LAT": 38.160594, "LON": -79.098562, "type": "public", "county": "790" }, "geometry": { "type": "Point", "coordinates": [ -79.098562, 38.160593999083162 ] } },
{ "type": "Feature", "properties": { "id": "510369002828", "NAME": "Staunton City School PreSchool Programs", "STREET": "Dixon Educational Center", "CITY": "Staunton", "STATE": "VA", "ZIP": "24401", "STFIP": "51", "CNTY": "51790", "NMCNTY": "Staunton city", "LOCALE": "13", "LAT": 38.17524, "LON": -79.08738, "type": "public", "county": "790" }, "geometry": { "type": "Point", "coordinates": [ -79.08738, 38.175239999083047 ] } },
{ "type": "Feature", "properties": { "id": "510393001064", "NAME": "William Perry Elementary", "STREET": "840 King Avenue", "CITY": "Waynesboro", "STATE": "VA", "ZIP": "22980", "STFIP": "51", "CNTY": "51820", "NMCNTY": "Waynesboro city", "LOCALE": "13", "LAT": 38.084163, "LON": -78.880194, "type": "public", "county": "820" }, "geometry": { "type": "Point", "coordinates": [ -78.880194, 38.084162999083745 ] } },
{ "type": "Feature", "properties": { "id": "510393001754", "NAME": "Berkeley Glenn Elementary", "STREET": "1020 Jefferson Ave", "CITY": "Waynesboro", "STATE": "VA", "ZIP": "22980", "STFIP": "51", "CNTY": "51820", "NMCNTY": "Waynesboro city", "LOCALE": "13", "LAT": 38.056081, "LON": -78.899227, "type": "public", "county": "820" }, "geometry": { "type": "Point", "coordinates": [ -78.899227, 38.056080999083967 ] } },
{ "type": "Feature", "properties": { "id": "510393001755", "NAME": "Kate Collins Middle", "STREET": "1625 Ivy St", "CITY": "Waynesboro", "STATE": "VA", "ZIP": "22980", "STFIP": "51", "CNTY": "51820", "NMCNTY": "Waynesboro city", "LOCALE": "13", "LAT": 38.081193, "LON": -78.894235, "type": "public", "county": "820" }, "geometry": { "type": "Point", "coordinates": [ -78.894235, 38.081192999083775 ] } },
{ "type": "Feature", "properties": { "id": "510393001759", "NAME": "Waynesboro High", "STREET": "1200 Main St", "CITY": "Waynesboro", "STATE": "VA", "ZIP": "22980", "STFIP": "51", "CNTY": "51820", "NMCNTY": "Waynesboro city", "LOCALE": "13", "LAT": 38.070577, "LON": -78.897895, "type": "public", "county": "820" }, "geometry": { "type": "Point", "coordinates": [ -78.897895, 38.070576999083869 ] } },
{ "type": "Feature", "properties": { "id": "510393001760", "NAME": "Wenonah Elementary", "STREET": "125 N Bayard Ave", "CITY": "Waynesboro", "STATE": "VA", "ZIP": "22980", "STFIP": "51", "CNTY": "51820", "NMCNTY": "Waynesboro city", "LOCALE": "13", "LAT": 38.068127, "LON": -78.879223, "type": "public", "county": "820" }, "geometry": { "type": "Point", "coordinates": [ -78.879223, 38.068126999083873 ] } },
{ "type": "Feature", "properties": { "id": "510393001761", "NAME": "Westwood Hills Elementary", "STREET": "548 Rosser Ave", "CITY": "Waynesboro", "STATE": "VA", "ZIP": "22980", "STFIP": "51", "CNTY": "51820", "NMCNTY": "Waynesboro city", "LOCALE": "13", "LAT": 38.069579, "LON": -78.910217, "type": "public", "county": "820" }, "geometry": { "type": "Point", "coordinates": [ -78.910217, 38.069578999083866 ] } },
{ "type": "Feature", "properties": { "id": "510393002855", "NAME": "Wayne Hills Center", "STREET": "937 Fir Street", "CITY": "Waynesboro", "STATE": "VA", "ZIP": "22980", "STFIP": "51", "CNTY": "51820", "NMCNTY": "Waynesboro city", "LOCALE": "13", "LAT": 38.079927, "LON": -78.88855, "type": "public", "county": "820" }, "geometry": { "type": "Point", "coordinates": [ -78.88855, 38.079926999083774 ] } },
{ "type": "Feature", "properties": { "id": "01434321", "NAME": "MILLER SCHOOL OF ALBEMARLE", "STREET": "1000 SAMUEL MILLER LOOP", "CITY": "CHARLOTTESVILLE", "STATE": "VA", "ZIP": "22903", "STFIP": "51", "CNTY": "51003", "NMCNTY": "Albemarle County", "LOCALE": "42", "LAT": 38.008745, "LON": -78.702311, "type": "private", "county": "003" }, "geometry": { "type": "Point", "coordinates": [ -78.702311, 38.008744999084342 ] } },
{ "type": "Feature", "properties": { "id": "01637117", "NAME": "TANDEM FRIENDS SCHOOL", "STREET": "279 TANDEM LN", "CITY": "CHARLOTTESVILLE", "STATE": "VA", "ZIP": "22902", "STFIP": "51", "CNTY": "51003", "NMCNTY": "Albemarle County", "LOCALE": "23", "LAT": 37.995788, "LON": -78.491879, "type": "private", "county": "003" }, "geometry": { "type": "Point", "coordinates": [ -78.491879, 37.995787999084449 ] } },
{ "type": "Feature", "properties": { "id": "A0109803", "NAME": "FROST MONTESSORI SCHOOL", "STREET": "1553 DELPHI DR", "CITY": "CHARLOTTESVILLE", "STATE": "VA", "ZIP": "22911", "STFIP": "51", "CNTY": "51003", "NMCNTY": "Albemarle County", "LOCALE": "23", "LAT": 38.03897, "LON": -78.447031, "type": "private", "county": "003" }, "geometry": { "type": "Point", "coordinates": [ -78.447031, 38.038969999084102 ] } },
{ "type": "Feature", "properties": { "id": "A0303198", "NAME": "AFTON CHRISTIAN SCHOOL", "STREET": "9357 CRITZERS SHOP RD", "CITY": "AFTON", "STATE": "VA", "ZIP": "22920", "STFIP": "51", "CNTY": "51003", "NMCNTY": "Albemarle County", "LOCALE": "41", "LAT": 38.01883, "LON": -78.820661, "type": "private", "county": "003" }, "geometry": { "type": "Point", "coordinates": [ -78.820661, 38.018829999084261 ] } },
{ "type": "Feature", "properties": { "id": "A0903682", "NAME": "FAITH CHRISTIAN ACADEMY", "STREET": "2186 RICHMOND RD", "CITY": "CHARLOTTESVILLE", "STATE": "VA", "ZIP": "22911", "STFIP": "51", "CNTY": "51003", "NMCNTY": "Albemarle County", "LOCALE": "41", "LAT": 38.016449, "LON": -78.425494, "type": "private", "county": "003" }, "geometry": { "type": "Point", "coordinates": [ -78.425494, 38.016448999084282 ] } },
{ "type": "Feature", "properties": { "id": "A0971786", "NAME": "PEABODY SCHOOL", "STREET": "1232 STONEY RIDGE RD", "CITY": "CHARLOTTESVILLE", "STATE": "VA", "ZIP": "22902", "STFIP": "51", "CNTY": "51003", "NMCNTY": "Albemarle County", "LOCALE": "23", "LAT": 38.00284, "LON": -78.501291, "type": "private", "county": "003" }, "geometry": { "type": "Point", "coordinates": [ -78.501291, 38.002839999084387 ] } },
{ "type": "Feature", "properties": { "id": "A1703639", "NAME": "ALBEMARLE MONTESSORI CHILDREN'S COMMUNITY", "STREET": "1550 INSURANCE LN", "CITY": "CHARLOTTESVILLE", "STATE": "VA", "ZIP": "22911", "STFIP": "51", "CNTY": "51003", "NMCNTY": "Albemarle County", "LOCALE": "23", "LAT": 38.119273, "LON": -78.447632, "type": "private", "county": "003" }, "geometry": { "type": "Point", "coordinates": [ -78.447632, 38.119272999083471 ] } },
{ "type": "Feature", "properties": { "id": "A9106625", "NAME": "FREE UNION COUNTRY SCHOOL", "STREET": "4220 FREE UNION RD", "CITY": "FREE UNION", "STATE": "VA", "ZIP": "22940", "STFIP": "51", "CNTY": "51003", "NMCNTY": "Albemarle County", "LOCALE": "41", "LAT": 38.153064, "LON": -78.562531, "type": "private", "county": "003" }, "geometry": { "type": "Point", "coordinates": [ -78.562531, 38.153063999083209 ] } },
{ "type": "Feature", "properties": { "id": "A9504258", "NAME": "CHARLOTTESVILLE WALDORF SCHOOL", "STREET": "120 WALDORF SCHOOL RD", "CITY": "CHARLOTTESVILLE", "STATE": "VA", "ZIP": "22901", "STFIP": "51", "CNTY": "51003", "NMCNTY": "Albemarle County", "LOCALE": "23", "LAT": 38.05691, "LON": -78.463311, "type": "private", "county": "003" }, "geometry": { "type": "Point", "coordinates": [ -78.463311, 38.056909999083963 ] } },
{ "type": "Feature", "properties": { "id": "A9703457", "NAME": "CHARLOTTESVILLE CATHOLIC SCHOOL", "STREET": "1205 PEN PARK RD", "CITY": "CHARLOTTESVILLE", "STATE": "VA", "ZIP": "22901", "STFIP": "51", "CNTY": "51003", "NMCNTY": "Albemarle County", "LOCALE": "23", "LAT": 38.05438, "LON": -78.459121, "type": "private", "county": "003" }, "geometry": { "type": "Point", "coordinates": [ -78.459121, 38.054379999083984 ] } },
{ "type": "Feature", "properties": { "id": "AA000448", "NAME": "MOUNTAINTOP MONTESSORI SCHOOL", "STREET": "440 PINNACLE PL", "CITY": "CHARLOTTESVILLE", "STATE": "VA", "ZIP": "22911", "STFIP": "51", "CNTY": "51003", "NMCNTY": "Albemarle County", "LOCALE": "23", "LAT": 38.03151, "LON": -78.443691, "type": "private", "county": "003" }, "geometry": { "type": "Point", "coordinates": [ -78.443691, 38.031509999084157 ] } },
{ "type": "Feature", "properties": { "id": "K9306168", "NAME": "UNIVERSITY MONTESSORI SCHOOL", "STREET": "1034 RESERVOIR RD", "CITY": "CHARLOTTESVILLE", "STATE": "VA", "ZIP": "22903", "STFIP": "51", "CNTY": "51003", "NMCNTY": "Albemarle County", "LOCALE": "41", "LAT": 38.02607, "LON": -78.534821, "type": "private", "county": "003" }, "geometry": { "type": "Point", "coordinates": [ -78.534821, 38.026069999084207 ] } },
{ "type": "Feature", "properties": { "id": "02063706", "NAME": "RIDGEVIEW CHRISTIAN SCHOOL", "STREET": "124 RIDGEVIEW DR", "CITY": "STUARTS DRAFT", "STATE": "VA", "ZIP": "24477", "STFIP": "51", "CNTY": "51015", "NMCNTY": "Augusta County", "LOCALE": "31", "LAT": 38.008331, "LON": -79.032082, "type": "private", "county": "015" }, "geometry": { "type": "Point", "coordinates": [ -79.032082, 38.008330999084343 ] } },
{ "type": "Feature", "properties": { "id": "A9106692", "NAME": "PILGRIM CHRISTIAN SCHOOL", "STREET": "238 TWIN HILL RD", "CITY": "STUARTS DRAFT", "STATE": "VA", "ZIP": "24477", "STFIP": "51", "CNTY": "51015", "NMCNTY": "Augusta County", "LOCALE": "41", "LAT": 38.04501, "LON": -79.051631, "type": "private", "county": "015" }, "geometry": { "type": "Point", "coordinates": [ -79.051631, 38.045009999084051 ] } },
{ "type": "Feature", "properties": { "id": "A9504319", "NAME": "STAUNTON MONTESSORI SCHOOL", "STREET": "2076 JEFFERSON HWY", "CITY": "FISHERSVILLE", "STATE": "VA", "ZIP": "22939", "STFIP": "51", "CNTY": "51015", "NMCNTY": "Augusta County", "LOCALE": "23", "LAT": 38.09421, "LON": -78.956981, "type": "private", "county": "015" }, "geometry": { "type": "Point", "coordinates": [ -78.956981, 38.094209999083674 ] } },
{ "type": "Feature", "properties": { "id": "A0303210", "NAME": "THE DISCOVERY SCHOOL OF VIRGINIA", "STREET": "2697 COPPER MINE RD", "CITY": "DILLWYN", "STATE": "VA", "ZIP": "23936", "STFIP": "51", "CNTY": "51029", "NMCNTY": "Buckingham County", "LOCALE": "43", "LAT": 37.603727, "LON": -78.442631, "type": "private", "county": "029" }, "geometry": { "type": "Point", "coordinates": [ -78.442631, 37.603726999087641 ] } },
{ "type": "Feature", "properties": { "id": "A1503933", "NAME": "DISCOVERY SCHOOL OF VIRGINIA FOR GIRLS", "STREET": "368 JIM BIRCH FOREST LN", "CITY": "DILLWYN", "STATE": "VA", "ZIP": "23936", "STFIP": "51", "CNTY": "51029", "NMCNTY": "Buckingham County", "LOCALE": "43", "LAT": 37.528574, "LON": -78.330381, "type": "private", "county": "029" }, "geometry": { "type": "Point", "coordinates": [ -78.330381, 37.528573999088266 ] } },
{ "type": "Feature", "properties": { "id": "AA000198", "NAME": "CALVARY CHRISTIAN SCHOOL", "STREET": "31139 N JAMES MADISON HWY", "CITY": "NEW CANTON", "STATE": "VA", "ZIP": "23123", "STFIP": "51", "CNTY": "51029", "NMCNTY": "Buckingham County", "LOCALE": "42", "LAT": 37.702071, "LON": -78.312674, "type": "private", "county": "029" }, "geometry": { "type": "Point", "coordinates": [ -78.312674, 37.702070999086814 ] } },
{ "type": "Feature", "properties": { "id": "01433124", "NAME": "FORK UNION MILITARY ACADEMY", "STREET": "4744 JAMES MADISON HWY", "CITY": "FORK UNION", "STATE": "VA", "ZIP": "23055", "STFIP": "51", "CNTY": "51065", "NMCNTY": "Fluvanna County", "LOCALE": "42", "LAT": 37.76194, "LON": -78.262231, "type": "private", "county": "065" }, "geometry": { "type": "Point", "coordinates": [ -78.262231, 37.76193999908633 ] } },
{ "type": "Feature", "properties": { "id": "01637128", "NAME": "OAKLAND SCHOOL", "STREET": "128 OAKLAND FARM WAY", "CITY": "TROY", "STATE": "VA", "ZIP": "22974", "STFIP": "51", "CNTY": "51065", "NMCNTY": "Fluvanna County", "LOCALE": "41", "LAT": 37.95221, "LON": -78.313771, "type": "private", "county": "065" }, "geometry": { "type": "Point", "coordinates": [ -78.313771, 37.952209999084793 ] } },
{ "type": "Feature", "properties": { "id": "A0503572", "NAME": "LAFAYETTE SCHOOL", "STREET": "103 ZION STATION RD", "CITY": "TROY", "STATE": "VA", "ZIP": "22974", "STFIP": "51", "CNTY": "51065", "NMCNTY": "Fluvanna County", "LOCALE": "42", "LAT": 37.97718, "LON": -78.234841, "type": "private", "county": "065" }, "geometry": { "type": "Point", "coordinates": [ -78.234841, 37.977179999084584 ] } },
{ "type": "Feature", "properties": { "id": "A1371556", "NAME": "EFFORT CHRISTIAN SCHOOL AND PRESCHOOL", "STREET": "7820 THOMAS JEFFERSON PKWY", "CITY": "PALMYRA", "STATE": "VA", "ZIP": "22963", "STFIP": "51", "CNTY": "51065", "NMCNTY": "Fluvanna County", "LOCALE": "31", "LAT": 37.92682, "LON": -78.357911, "type": "private", "county": "065" }, "geometry": { "type": "Point", "coordinates": [ -78.357911, 37.926819999084998 ] } },
{ "type": "Feature", "properties": { "id": "A9106686", "NAME": "OPEN DOOR CHRISTIAN SCHOOL", "STREET": "551 LAKE RD", "CITY": "TROY", "STATE": "VA", "ZIP": "22974", "STFIP": "51", "CNTY": "51065", "NMCNTY": "Fluvanna County", "LOCALE": "42", "LAT": 37.94692, "LON": -78.229201, "type": "private", "county": "065" }, "geometry": { "type": "Point", "coordinates": [ -78.229201, 37.946919999084834 ] } },
{ "type": "Feature", "properties": { "id": "01434842", "NAME": "BLUE RIDGE SCHOOL", "STREET": "273 MAYO DR", "CITY": "ST GEORGE", "STATE": "VA", "ZIP": "22935", "STFIP": "51", "CNTY": "51079", "NMCNTY": "Greene County", "LOCALE": "42", "LAT": 38.26581, "LON": -78.556191, "type": "private", "county": "079" }, "geometry": { "type": "Point", "coordinates": [ -78.556191, 38.26580999908235 ] } },
{ "type": "Feature", "properties": { "id": "01432903", "NAME": "PIEDMONT CHRISTIAN SCHOOL", "STREET": "2382 BETHANY CHURCH RD", "CITY": "BUMPASS", "STATE": "VA", "ZIP": "23024", "STFIP": "51", "CNTY": "51109", "NMCNTY": "Louisa County", "LOCALE": "42", "LAT": 37.89937, "LON": -77.775351, "type": "private", "county": "109" }, "geometry": { "type": "Point", "coordinates": [ -77.775351, 37.899369999085209 ] } },
{ "type": "Feature", "properties": { "id": "01433725", "NAME": "WOODBERRY FOREST SCHOOL", "STREET": "898 WOODBERRY FOREST RD", "CITY": "WOODBERRY FOREST", "STATE": "VA", "ZIP": "22989", "STFIP": "51", "CNTY": "51113", "NMCNTY": "Madison County", "LOCALE": "41", "LAT": 38.29111, "LON": -78.121651, "type": "private", "county": "113" }, "geometry": { "type": "Point", "coordinates": [ -78.121651, 38.291109999082153 ] } },
{ "type": "Feature", "properties": { "id": "02064798", "NAME": "OAK GROVE MENNONITE SCHOOL", "STREET": "563 TOM JOHNSTON RD", "CITY": "ARODA", "STATE": "VA", "ZIP": "22709", "STFIP": "51", "CNTY": "51113", "NMCNTY": "Madison County", "LOCALE": "42", "LAT": 38.34118, "LON": -78.225121, "type": "private", "county": "113" }, "geometry": { "type": "Point", "coordinates": [ -78.225121, 38.341179999081788 ] } },
{ "type": "Feature", "properties": { "id": "A9703484", "NAME": "NORTH BRANCH SCHOOL", "STREET": "221 MICKENS RD", "CITY": "AFTON", "STATE": "VA", "ZIP": "22920", "STFIP": "51", "CNTY": "51125", "NMCNTY": "Nelson County", "LOCALE": "41", "LAT": 37.99914, "LON": -78.821821, "type": "private", "county": "125" }, "geometry": { "type": "Point", "coordinates": [ -78.821821, 37.999139999084413 ] } },
{ "type": "Feature", "properties": { "id": "01433736", "NAME": "GRYMES MEMORIAL SCHOOL", "STREET": "13775 SPICERS MILL RD", "CITY": "ORANGE", "STATE": "VA", "ZIP": "22960", "STFIP": "51", "CNTY": "51137", "NMCNTY": "Orange County", "LOCALE": "41", "LAT": 38.25492, "LON": -78.134181, "type": "private", "county": "137" }, "geometry": { "type": "Point", "coordinates": [ -78.134181, 38.254919999082425 ] } },
{ "type": "Feature", "properties": { "id": "02063386", "NAME": "ST ANNE'S-BELFIELD SCHOOL", "STREET": "2132 IVY RD", "CITY": "CHARLOTTESVILLE", "STATE": "VA", "ZIP": "22903", "STFIP": "51", "CNTY": "51540", "NMCNTY": "Charlottesville city", "LOCALE": "13", "LAT": 38.04241, "LON": -78.515321, "type": "private", "county": "540" }, "geometry": { "type": "Point", "coordinates": [ -78.515321, 38.042409999084065 ] } },
{ "type": "Feature", "properties": { "id": "A0109901", "NAME": "THE INTERNATIONAL SCHOOL OF CHARLOTTESVILLE", "STREET": "830 MONTICELLO AVE", "CITY": "CHARLOTTESVILLE", "STATE": "VA", "ZIP": "22902", "STFIP": "51", "CNTY": "51540", "NMCNTY": "Charlottesville city", "LOCALE": "13", "LAT": 38.02279, "LON": -78.476401, "type": "private", "county": "540" }, "geometry": { "type": "Point", "coordinates": [ -78.476401, 38.022789999084239 ] } },
{ "type": "Feature", "properties": { "id": "A0110072", "NAME": "VILLAGE SCHOOL", "STREET": "215 E HIGH ST", "CITY": "CHARLOTTESVILLE", "STATE": "VA", "ZIP": "22902", "STFIP": "51", "CNTY": "51540", "NMCNTY": "Charlottesville city", "LOCALE": "13", "LAT": 38.03283, "LON": -78.478971, "type": "private", "county": "540" }, "geometry": { "type": "Point", "coordinates": [ -78.478971, 38.03282999908415 ] } },
{ "type": "Feature", "properties": { "id": "A0110073", "NAME": "VIRGINIA INSTITUTE OF AUTISM", "STREET": "1414 WESTWOOD RD", "CITY": "CHARLOTTESVILLE", "STATE": "VA", "ZIP": "22901", "STFIP": "51", "CNTY": "51540", "NMCNTY": "Charlottesville city", "LOCALE": "13", "LAT": 38.04394, "LON": -78.480188, "type": "private", "county": "540" }, "geometry": { "type": "Point", "coordinates": [ -78.480188, 38.043939999084067 ] } },
{ "type": "Feature", "properties": { "id": "A0992066", "NAME": "RENAISSANCE SCHOOL", "STREET": "418 E JEFFERSON ST", "CITY": "CHARLOTTESVILLE", "STATE": "VA", "ZIP": "22902", "STFIP": "51", "CNTY": "51540", "NMCNTY": "Charlottesville city", "LOCALE": "13", "LAT": 38.03119, "LON": -78.477981, "type": "private", "county": "540" }, "geometry": { "type": "Point", "coordinates": [ -78.477981, 38.03118999908417 ] } },
{ "type": "Feature", "properties": { "id": "A1371533", "NAME": "CHARLOTTESVILLE DAY SCHOOL", "STREET": "320 10TH ST NE", "CITY": "CHARLOTTESVILLE", "STATE": "VA", "ZIP": "22902", "STFIP": "51", "CNTY": "51540", "NMCNTY": "Charlottesville city", "LOCALE": "13", "LAT": 38.030245, "LON": -78.472405, "type": "private", "county": "540" }, "geometry": { "type": "Point", "coordinates": [ -78.472405, 38.030244999084175 ] } },
{ "type": "Feature", "properties": { "id": "A9708110", "NAME": "FIRST BAPTIST PRESCHOOL", "STREET": "735 PARK ST", "CITY": "CHARLOTTESVILLE", "STATE": "VA", "ZIP": "22902", "STFIP": "51", "CNTY": "51540", "NMCNTY": "Charlottesville city", "LOCALE": "13", "LAT": 38.0389, "LON": -78.474501, "type": "private", "county": "540" }, "geometry": { "type": "Point", "coordinates": [ -78.474501, 38.038899999084109 ] } },
{ "type": "Feature", "properties": { "id": "01435074", "NAME": "C.F.RICHARDS CHRISTIAN SCHOOL", "STREET": "414 STERLING ST", "CITY": "STAUNTON", "STATE": "VA", "ZIP": "24401", "STFIP": "51", "CNTY": "51790", "NMCNTY": "Staunton city", "LOCALE": "13", "LAT": 38.12854, "LON": -79.059491, "type": "private", "county": "790" }, "geometry": { "type": "Point", "coordinates": [ -79.059491, 38.128539999083394 ] } },
{ "type": "Feature", "properties": { "id": "02065893", "NAME": "GRACE CHRISTIAN SCHOOL", "STREET": "19 S MARKET ST", "CITY": "STAUNTON", "STATE": "VA", "ZIP": "24401", "STFIP": "51", "CNTY": "51790", "NMCNTY": "Staunton city", "LOCALE": "13", "LAT": 38.14903, "LON": -79.069791, "type": "private", "county": "790" }, "geometry": { "type": "Point", "coordinates": [ -79.069791, 38.149029999083254 ] } },
{ "type": "Feature", "properties": { "id": "A1102311", "NAME": "RAW LEARNING", "STREET": "101 VSDB DR, STE 5", "CITY": "STAUNTON", "STATE": "VA", "ZIP": "24401", "STFIP": "51", "CNTY": "51790", "NMCNTY": "Staunton city", "LOCALE": "13", "LAT": 38.14942, "LON": -79.065068, "type": "private", "county": "790" }, "geometry": { "type": "Point", "coordinates": [ -79.065068, 38.149419999083243 ] } },
{ "type": "Feature", "properties": { "id": "A1703661", "NAME": "GRACE CHRISTIAN SCHOOL - ELEMENTARY\/MIDDLE", "STREET": "511 THORNROSE AVE", "CITY": "STAUNTON", "STATE": "VA", "ZIP": "24401", "STFIP": "51", "CNTY": "51790", "NMCNTY": "Staunton city", "LOCALE": "13", "LAT": 38.157431, "LON": -79.081338, "type": "private", "county": "790" }, "geometry": { "type": "Point", "coordinates": [ -79.081338, 38.157430999083182 ] } },
{ "type": "Feature", "properties": { "id": "01433791", "NAME": "FISHBURNE MILITARY SCHOOL", "STREET": "225 S WAYNE AVE", "CITY": "WAYNESBORO", "STATE": "VA", "ZIP": "22980", "STFIP": "51", "CNTY": "51820", "NMCNTY": "Waynesboro city", "LOCALE": "13", "LAT": 38.06747, "LON": -78.891231, "type": "private", "county": "820" }, "geometry": { "type": "Point", "coordinates": [ -78.891231, 38.067469999083883 ] } },
{ "type": "Feature", "properties": { "id": "A1371549", "NAME": "DEMI\/GOOD SHEPHERD SCHOOL & DAY CARE", "STREET": "109 COMMUNITY DR", "CITY": "WAYNESBORO", "STATE": "VA", "ZIP": "22980", "STFIP": "51", "CNTY": "51820", "NMCNTY": "Waynesboro city", "LOCALE": "13", "LAT": 38.08425, "LON": -78.931321, "type": "private", "county": "820" }, "geometry": { "type": "Point", "coordinates": [ -78.931321, 38.084249999083745 ] } }
]
}
